[
    {
        "id": 1,
        "title": "Maize Mexican Grill",
        "cuisine": "Mexican",
        "hours": "11:00 am - 9:00 pm",
        "rating": 4.5,
        "address": "60 E Green St",
        "city": "Champaign",
        "state": "IL",
        "zip": "61820"
    },
    {
        "id": 2,
        "title": "McDonalds",
        "cuisine": "Fast Food",
        "hours": "12:00 am - 12:00 am",
        "rating": 2.5,
        "address": "616 E Green St",
        "city": "Champaign",
        "state": "IL",
        "zip": "61820"
    },
    {
        "id": 3,
        "title": "Chipotle",
        "cuisine": "Mexican",
        "hours": "11:00 am - 9:00 pm",
        "rating": 3.5,
        "address": "528 E Green St #101",
        "city": "Champaign",
        "state": "IL",
        "zip": "61820"
    },
    {
        "id": 4,
        "title": "Papa Del's Pizza",
        "cuisine": "Pizza",
        "hours": "11:00 am - 9:00 pm",
        "rating": 4.0,
        "address": "206 E Green St",
        "city": "Champaign",
        "state": "IL",
        "zip": "61820"
    },
    {
        "id": 5,
        "title": "Mashami Grill",
        "cuisine": "Mediterranean",
        "hours": "11:00 am - 9:00 pm",
        "rating": 4.5,
        "address": "60 E Green St",
        "city": "Champaign",
        "state": "IL",
        "zip": "61820"
    },
    {
        "id": 6,
        "title": "Lai Lai Wok",
        "cuisine": "Chinese",
        "hours": "11:00 am - 9:00 pm",
        "rating": 4.0,
        "address": "402 E Green St",
        "city": "Champaign",
        "state": "IL",
        "zip": "61820"
    },
    {
        "id": 7,
        "title": "Asian Taste",
        "cuisine": "Chinese",
        "hours": "11:00 am - 9:00 pm",
        "rating": 4.0,
        "address": "60 E Green St",
        "city": "Champaign",
        "state": "IL",
        "zip": "61820"
    },
    {
        "id": 8,
        "title": "Bangkok Thai",
        "cuisine": "Thai",
        "hours": "11:00 am - 9:00 pm",
        "rating": 4.5,
        "address": "410 E Green St",
        "city": "Champaign",
        "state": "IL",
        "zip": "61820"
    },
    {
        "id": 9,
        "title": "Black Dog Smoke & Ale House",
        "cuisine": "American",
        "hours": "11:00 am - 9:00 pm",
        "rating": 4.5,
        "address": "201 N Broadway Ave",
        "city": "Urbana",
        "state": "IL",
        "zip": "61801"
    },
    {
        "id": 10,
        "title": "Farren's Pub & Eatery",
        "cuisine": "American",
        "hours": "11:00 am - 9:00 pm",
        "rating": 4.0,
        "address": "308 N Randolph St",
        "city": "Champaign",
        "state": "IL",
        "zip": "61820"
    },
    {
        "id": 11,
        "title": "Seven Saints",
        "cuisine": "American",
        "hours": "11:00 am - 9:00 pm",
        "rating": 3.5,
        "address": "32 E Chester St",
        "city": "Champaign",
        "state": "IL",
        "zip": "61820"
    },
    {
        "id": 12,
        "title": "Golden Harbor",
        "cuisine": "Chinese",
        "hours": "11:00 am - 9:00 pm",
        "rating": 4.5,
        "address": "505 S Neil St",
        "city": "Champaign",
        "state": "IL",
        "zip": "61820"
    },
    {
        "id": 13,
        "title": "Radio Maria",
        "cuisine": "Mexican",
        "hours": "10:00 am - 9:00 pm",
        "rating": 3.5,
        "address": "119 N Walnut St",
        "city": "Champaign",
        "state": "IL",
        "zip": "61820"
    },
    {
        "id": 14,
        "title": "Jarlings Custard Cup",
        "cuisine": "Dessert",
        "hours": "11:00 am - 10:00 pm",
        "rating": 4.5,
        "address": "309 W Kirby Ave",
        "city": "Champaign",
        "state": "IL",
        "zip": "61820"
    },
    {
        "id": 15,
        "title": "Orange Leaf",
        "cuisine": "Dessert",
        "hours": "11:00 am - 11:00 pm",
        "rating": 3.5,
        "address": "512 E Green St",
        "city": "Champaign",
        "state": "IL",
        "zip": "61820"
    },
    {
        "id": 16,
        "title": "Cracked",
        "cuisine": "Food Truck",
        "hours": "8:00 am - 2:00 am",
        "rating": 4.5,
        "address": "none",
        "city": "Champaign",
        "state": "IL",
        "zip": "61820"
    },
    {
        "id": 17,
        "title": "Zorba's",
        "cuisine": "Gyro",
        "hours": "11:00 am - 9:00 pm",
        "rating": 4.0,
        "address": "627 E Green St",
        "city": "Champaign",
        "state": "IL",
        "zip": "61820"
    },
    {
        "id": 18,
        "title": "Firehaus",
        "cuisine": "American",
        "hours": "11:00 am - 2:00 am",
        "rating": 3.5,
        "address": "708 S 6th St",
        "city": "Champaign",
        "state": "IL",
        "zip": "61820"
    },
    {
        "id": 19,
        "title": "Joes Brewery",
        "cuisine": "American",
        "hours": "11:00 am - 2:00 am",
        "rating": 3.0,
        "address": "706 S 5th St",
        "city": "Champaign",
        "state": "IL",
        "zip": "61820"
    },
    {
        "id": 20,
        "title": "Legends",
        "cuisine": "American",
        "hours": "11:00 am - 2:00 am",
        "rating": 3.0,
        "address": "522 E Green St",
        "city": "Champaign",
        "state": "IL",
        "zip": "61820"
    },
    {
        "id": 21,
        "title": "Panera Bread",
        "cuisine": "Soup/Sandwich",
        "hours": "7:00 am - 9:00 pm",
        "rating": 3.0,
        "address": "616 E Green St",
        "city": "Champaign",
        "state": "IL",
        "zip": "61820"
    },
    {
        "id": 22,
        "title": "Siam Terrace",
        "cuisine": "Thai",
        "hours": "11:00 am - 9:00 pm",
        "rating": 4.0,
        "address": "212 W Main St",
        "city": "Champaign",
        "state": "IL",
        "zip": "61820"
    },
    {
        "id": 23,
        "title": "Sakanaya",
        "cuisine": "Japanese",
        "hours": "11:00 am - 9:00 pm",
        "rating": 4.5,
        "address": "403 E Green St",
        "city": "Champaign",
        "state": "IL",
        "zip": "61820"
    },
    {
        "id": 24,
        "title": "Mia Za's Ristoranto",
        "cuisine": "Italian",
        "hours": "11:00 am - 9:00 pm",
        "rating": 3.5,
        "address": "629 E Green St",
        "city": "Champaign",
        "state": "IL",
        "zip": "61820"
    },
    {
        "id": 25,
        "title": "Antonio's Pizzeria",
        "cuisine": "Pizza",
        "hours": "11:00 am - 3:00 am",
        "rating": 4.0,
        "address": "619 E Green St",
        "city": "Champaign",
        "state": "IL",
        "zip": "61820"
    },
    {
        "id": 26,
        "title": "Espresso Royale",
        "cuisine": "Cafe",
        "hours": "7:00 am - 11:00 pm",
        "rating": 3.5,
        "address": "1401 W Green St #142",
        "city": "Champaign",
        "state": "IL",
        "zip": "61820"
    },
    {
        "id": 27,
        "title": "Starbucks",
        "cuisine": "Cafe",
        "hours": "6:00 am - 12:00 am",
        "rating": 3.5,
        "address": "503 E Green St",
        "city": "Champaign",
        "state": "IL",
        "zip": "61820"
    },
    {
        "id": 28,
        "title": "Papa Ds",
        "cuisine": "American",
        "hours": "11:00 am - 3:00 am",
        "rating": 3.0,
        "address": "401 E Green St",
        "city": "Champaign",
        "state": "IL",
        "zip": "61820"
    },
    {
        "id": 29,
        "title": "Dominos Pizza",
        "cuisine": "Pizza",
        "hours": "10:00 am - 3:00 am",
        "rating": 3.0,
        "address": "102 E Green St",
        "city": "Champaign",
        "state": "IL",
        "zip": "61820"
    },
    {
        "id": 30,
        "title": "Papa Johns Pizza",
        "cuisine": "Pizza",
        "hours": "10:00 am - 2:30 am",
        "rating": 2.5,
        "address": "106 E Green St",
        "city": "Champaign",
        "state": "IL",
        "zip": "61820"
    }
]